{"type":"FeatureCollection","bbox":[139.015485,35.142096,139.745469,35.640564],"features":[{"type":"Feature","properties":{"P29_001":"14201","P29_002":"16","P29_003":"16002","P29_004":"16002","P29_005":"衣笠中学校","P29_006":"平作2-31-1","P29_007":3,"label":"衣笠中"},"geometry":{"type":"Point","coordinates":[139.652507,35.252982]}},{"type":"Feature","properties":{"P29_001":"14201","P29_002":"16","P29_003":"16002","P29_004":"16002","P29_005":"浦賀中学校","P29_006":"浦賀町3-26-1","P29_007":3,"label":"浦賀中"},"geometry":{"type":"Point","coordinates":[139.712255,35.25011]}},{"type":"Feature","properties":{"P29_001":"14201","P29_002":"16","P29_003":"16002","P29_004":"16002","P29_005":"横須賀学院中学校","P29_006":"稲岡町82","P29_007":4,"label":"横須賀学院中"},"geometry":{"type":"Point","coordinates":[139.672922,35.285173]}},{"type":"Feature","properties":{"P29_001":"14201","P29_002":"16","P29_003":"16002","P29_004":"16002","P29_005":"鴨居中学校","P29_006":"鴨居3-2-2","P29_007":3,"label":"鴨居中"},"geometry":{"type":"Point","coordinates":[139.733029,35.252482]}},{"type":"Feature","properties":{"P29_001":"14201","P29_002":"16","P29_003":"16002","P29_004":"16002","P29_005":"岩戸中学校","P29_006":"岩戸5-6-3","P29_007":3,"label":"岩戸中"},"geometry":{"type":"Point","coordinates":[139.668219,35.227857]}},{"type":"Feature","properties":{"P29_001":"14201","P29_002":"16","P29_003":"16002","P29_004":"16002","P29_005":"久里浜中学校","P29_006":"久里浜2-11-1","P29_007":3,"label":"久里浜中"},"geometry":{"type":"Point","coordinates":[139.698448,35.228818]}},{"type":"Feature","properties":{"P29_001":"14201","P29_002":"16","P29_003":"16002","P29_004":"16002","P29_005":"公郷中学校","P29_006":"公郷町5-81","P29_007":3,"label":"公郷中"},"geometry":{"type":"Point","coordinates":[139.678894,35.257093]}},{"type":"Feature","properties":{"P29_001":"14201","P29_002":"16","P29_003":"16002","P29_004":"16002","P29_005":"坂本中学校","P29_006":"坂本町1-19","P29_007":3,"label":"坂本中"},"geometry":{"type":"Point","coordinates":[139.658673,35.27173]}},{"type":"Feature","properties":{"P29_001":"14201","P29_002":"16","P29_003":"16002","P29_004":"16002","P29_005":"常葉中学校","P29_006":"小川町18","P29_007":3,"label":"常葉中"},"geometry":{"type":"Point","coordinates":[139.674339,35.281896]}},{"type":"Feature","properties":{"P29_001":"14201","P29_002":"16","P29_003":"16002","P29_004":"16002","P29_005":"神明中学校","P29_006":"神明町903","P29_007":3,"label":"神明中"},"geometry":{"type":"Point","coordinates":[139.70092,35.225179]}},{"type":"Feature","properties":{"P29_001":"14201","P29_002":"16","P29_003":"16002","P29_004":"16002","P29_005":"大津中学校","P29_006":"大津町5-2-1","P29_007":3,"label":"大津中"},"geometry":{"type":"Point","coordinates":[139.686615,35.256732]}},{"type":"Feature","properties":{"P29_001":"14201","P29_002":"16","P29_003":"16002","P29_004":"16002","P29_005":"大楠中学校","P29_006":"芦名1-2-1","P29_007":3,"label":"大楠中"},"geometry":{"type":"Point","coordinates":[139.61576,35.23104]}},{"type":"Feature","properties":{"P29_001":"14201","P29_002":"16","P29_003":"16002","P29_004":"16002","P29_005":"大矢部中学校","P29_006":"森崎5-14-2","P29_007":3,"label":"大矢部中"},"geometry":{"type":"Point","coordinates":[139.665811,35.244706]}},{"type":"Feature","properties":{"P29_001":"14201","P29_002":"16","P29_003":"16002","P29_004":"16002","P29_005":"鷹取中学校","P29_006":"湘南鷹取2-30-1","P29_007":3,"label":"鷹取中"},"geometry":{"type":"Point","coordinates":[139.621983,35.308144]}},{"type":"Feature","properties":{"P29_001":"14201","P29_002":"16","P29_003":"16002","P29_004":"16002","P29_005":"池上中学校","P29_006":"池上3-5-1","P29_007":3,"label":"池上中"},"geometry":{"type":"Point","coordinates":[139.647035,35.261148]}},{"type":"Feature","properties":{"P29_001":"14201","P29_002":"16","P29_003":"16002","P29_004":"16002","P29_005":"長井中学校","P29_006":"長井5-12-1","P29_007":3,"label":"長井中"},"geometry":{"type":"Point","coordinates":[139.614899,35.205737]}},{"type":"Feature","properties":{"P29_001":"14201","P29_002":"16","P29_003":"16002","P29_004":"16002","P29_005":"長沢中学校","P29_006":"長沢5-1-1","P29_007":3,"label":"長沢中"},"geometry":{"type":"Point","coordinates":[139.675689,35.213318]}},{"type":"Feature","properties":{"P29_001":"14201","P29_002":"16","P29_003":"16002","P29_004":"16002","P29_005":"追浜中学校","P29_006":"夏島町12","P29_007":3,"label":"追浜中"},"geometry":{"type":"Point","coordinates":[139.632871,35.319505]}},{"type":"Feature","properties":{"P29_001":"14201","P29_002":"16","P29_003":"16002","P29_004":"16002","P29_005":"田浦中学校","P29_006":"船越町7-66","P29_007":3,"label":"田浦中"},"geometry":{"type":"Point","coordinates":[139.631982,35.301895]}},{"type":"Feature","properties":{"P29_001":"14201","P29_002":"16","P29_003":"16002","P29_004":"16002","P29_005":"馬堀中学校","P29_006":"馬堀町4-10-2","P29_007":3,"label":"馬堀中"},"geometry":{"type":"Point","coordinates":[139.716724,35.258787]}},{"type":"Feature","properties":{"P29_001":"14201","P29_002":"16","P29_003":"16002","P29_004":"16002","P29_005":"不入斗中学校","P29_006":"坂本町1-19","P29_007":3,"label":"不入斗中"},"geometry":{"type":"Point","coordinates":[139.660729,35.272591]}},{"type":"Feature","properties":{"P29_001":"14201","P29_002":"16","P29_003":"16002","P29_004":"16002","P29_005":"武山中学校","P29_006":"武3-31-1","P29_007":3,"label":"武山中"},"geometry":{"type":"Point","coordinates":[139.644296,35.218049]}},{"type":"Feature","properties":{"P29_001":"14201","P29_002":"16","P29_003":"16002","P29_004":"16002","P29_005":"北下浦中学校","P29_006":"長沢1-30-17","P29_007":3,"label":"北下浦中"},"geometry":{"type":"Point","coordinates":[139.673444,35.204075]}},{"type":"Feature","properties":{"P29_001":"14201","P29_002":"16","P29_003":"16002","P29_004":"16002","P29_005":"野比中学校","P29_006":"野比4-4-1","P29_007":3,"label":"野比中"},"geometry":{"type":"Point","coordinates":[139.694615,35.215486]}},{"type":"Feature","properties":{"P29_001":"14201","P29_002":"16","P29_003":"16002","P29_004":"16002","P29_005":"緑ケ丘女子中学校","P29_006":"緑が丘39","P29_007":4,"label":"緑ケ丘女子中"},"geometry":{"type":"Point","coordinates":[139.664313,35.280585]}}]}